{
  "locations": [
    {
      "name": "Oasen Storsenter",
      "type": "shopping-mall",
      "lat": "59.377347",
      "lng": "5.307100"
    },
    {
      "name": "Markedet",
      "type": "shopping-mall",
      "lat": "59.4109525",
      "lng": "5.2712877"
    },
    {
      "name": "Kiwi Vormdal",
      "type": "grocery-store",
      "lat": "59.3547848",
      "lng": "5.322233"
    },
    {
      "name": "Amanda Storsenter",
      "type": "shopping-mall",
      "lat": "59.3943416",
      "lng": "5.3304213"
    },
    {
      "name": "Kårstø",
      "type": "office",
      "lat": "59.2748443",
      "lng": "5.5232622"
    }
  ]
}